{
  "35.05_137.15": {
    "cached_at": "2026-04-16",
    "parkings": [
      {
        "name": "トヨタ自動車本社工場待合せ技10",
        "address": "日本、〒471-0826 愛知県豊田市トヨタ町４７１−０８２６",
        "place_id": "ChIJZ-5slPGhBGARNbhhN_kNyEw",
        "lat": 35.0532288,
        "lng": 137.1537482
      },
      {
        "name": "トヨタ自動車本社第２駐車場",
        "address": "日本、〒471-0826 愛知県豊田市トヨタ町",
        "place_id": "ChIJGRw6-n6hBGARJjQ9I-4WDi8",
        "lat": 35.0533952,
        "lng": 137.1525794
      },
      {
        "name": "タイムズ三河豊田駅南",
        "address": "日本、〒471-0826 愛知県豊田市トヨタ町６４７",
        "place_id": "ChIJI7Xy0gihBGARk_c9Jn4lLxg",
        "lat": 35.053859599999996,
        "lng": 137.15136099999998
      },
      {
        "name": "ニッシンパーク三河豊田駅南駐車場",
        "address": "日本、〒471-0826 愛知県豊田市トヨタ町",
        "place_id": "ChIJuci0PtyhBGARl5SMbM72N2E",
        "lat": 35.0526798,
        "lng": 137.1517198
      },
      {
        "name": "トヨタ本社 南駐車場",
        "address": "日本、〒470-1201 愛知県豊田市豊栄町１丁目",
        "place_id": "ChIJoaE0cL-hBGARawskHMJOa9o",
        "lat": 35.0521304,
        "lng": 137.15646619999998
      },
      {
        "name": "名城パーキング三河豊田駅",
        "address": "日本、〒473-0901 愛知県豊田市御幸本町１丁目",
        "place_id": "ChIJTZKKAQChBGARBZGUwPTimVk",
        "lat": 35.0543495,
        "lng": 137.1509442
      },
      {
        "name": "三井のリパーク 三河豊田駅南 駐車場",
        "address": "日本、〒473-0901 愛知県豊田市御幸本町１丁目２０４",
        "place_id": "ChIJQQZAmE6hBGARQHZXyDRB9G0",
        "lat": 35.053211399999995,
        "lng": 137.151095
      },
      {
        "name": "ニッシンパーク三河豊田駅南第2駐車場(Ｂ)トヨタ町",
        "address": "日本、〒471-0826 愛知県豊田市トヨタ町４７１ 0826",
        "place_id": "ChIJrYhxGgChBGARrYowDCo7xoc",
        "lat": 35.0519512,
        "lng": 137.15199429999998
      },
      {
        "name": "タイムズエニタイムフィットネス豊田御幸本町店",
        "address": "日本、〒473-0901 愛知県豊田市御幸本町３丁目８６",
        "place_id": "ChIJb00rPlKhBGARlYjfn1IG2xQ",
        "lat": 35.052918999999996,
        "lng": 137.151072
      },
      {
        "name": "パレス第３豊田｜パークダイレクト",
        "address": "日本、〒471-0833 愛知県豊田市山之手４丁目１５５",
        "place_id": "ChIJH37lIQChBGARX2g1WUpBLyg",
        "lat": 35.0547566,
        "lng": 137.1508264
      },
      {
        "name": "名鉄協商パーキング 三河豊田駅南",
        "address": "日本、〒473-0901 愛知県豊田市御幸本町３丁目80−２",
        "place_id": "ChIJJ-cnnI-hBGARXQ7kLj6Tabo",
        "lat": 35.0524549,
        "lng": 137.1510906
      },
      {
        "name": "三井のリパーク 三河豊田駅前 駐車場",
        "address": "日本、〒473-0901 愛知県豊田市御幸本町１丁目２２１",
        "place_id": "ChIJ5aprmM2hBGARdO8KVY8spcQ",
        "lat": 35.0542474,
        "lng": 137.15041449999998
      },
      {
        "name": "FK三河豊田駅前駐車場｜パークダイレクト",
        "address": "日本、〒471-0833 愛知県豊田市山之手４丁目１６１",
        "place_id": "ChIJ93aAfgChBGARcFGC4VEuoSU",
        "lat": 35.0548314,
        "lng": 137.15045410000002
      },
      {
        "name": "豊栄 第4駐車場",
        "address": "日本、〒471-0826 愛知県豊田市トヨタ町",
        "place_id": "ChIJR4x_9tChBGARGz4C27Limh4",
        "lat": 35.051186799999996,
        "lng": 137.1525049
      },
      {
        "name": "Dパーキング三河豊田駅前第2",
        "address": "日本、〒471-0833 愛知県豊田市山之手４丁目１６１",
        "place_id": "ChIJx0zPiF2hBGARVT1cac_swLw",
        "lat": 35.0549086,
        "lng": 137.15042169999998
      },
      {
        "name": "タイムズ三河豊田駅",
        "address": "日本、〒471-0833 愛知県豊田市トヨタ町４丁目６４３",
        "place_id": "ChIJ01Nm_sWhBGARomyJBYX9lCs",
        "lat": 35.055755999999995,
        "lng": 137.150739
      },
      {
        "name": "ニッシンパーク トヨタ町駐車場",
        "address": "日本、〒471-0826 愛知県豊田市トヨタ町",
        "place_id": "ChIJbWETZuehBGARaOoft9bOBF8",
        "lat": 35.051107099999996,
        "lng": 137.15224640000002
      },
      {
        "name": "ニッシンパーク三河豊田駅駐車場",
        "address": "日本、〒471-0826 愛知県豊田市トヨタ町",
        "place_id": "ChIJi7Sj7SWhBGARXXWzyKzdnks",
        "lat": 35.056529999999995,
        "lng": 137.1510705
      },
      {
        "name": "三井のリパーク 三河豊田駅前第３ 駐車場",
        "address": "日本、〒471-0833 愛知県豊田市山之手４丁目１４０",
        "place_id": "ChIJ-Q66nhihBGARL-R2CvEsr9U",
        "lat": 35.056308300000005,
        "lng": 137.15040879999998
      },
      {
        "name": "名鉄協商パーキング 三河豊田駅前",
        "address": "日本、〒471-0833 愛知県豊田市山之手４丁目１４３",
        "place_id": "ChIJ1VylbnChBGARUNMpIQu1S9w",
        "lat": 35.056531199999995,
        "lng": 137.1506149
      }
    ]
  },
  "35.16_136.9": {
    "cached_at": "2026-04-16",
    "parkings": [
      {
        "name": "三井のリパーク 名古屋市科学館前第２ 駐車場",
        "address": "日本、〒460-0008 愛知県名古屋市中区栄２丁目１１−１８",
        "place_id": "ChIJjYUnzEt3A2ARtm6uxKTmGjE",
        "lat": 35.1654536,
        "lng": 136.89991
      },
      {
        "name": "三井のリパーク 栄第３４駐車場",
        "address": "日本、〒460-0008 愛知県名古屋市中区栄２丁目１１−１１１７",
        "place_id": "ChIJ93NLbix3A2ARtsx31OlZ_ys",
        "lat": 35.165596,
        "lng": 136.899646
      },
      {
        "name": "名鉄協商パーキング 栄２丁目第４",
        "address": "日本、〒460-0008 愛知県名古屋市中区栄２丁目１１−１１",
        "place_id": "ChIJ4U_jKSF3A2ARLPedf-2bLfw",
        "lat": 35.1656806,
        "lng": 136.899956
      },
      {
        "name": "名鉄協商パーキング 白川公園",
        "address": "日本、〒460-0008 愛知県名古屋市中区栄２丁目１０−１０",
        "place_id": "ChIJOWUQXpl3A2AR-SObR3BmMRs",
        "lat": 35.1653776,
        "lng": 136.89823389999998
      },
      {
        "name": "NPC24H白川公園第2パーキング",
        "address": "日本、〒460-0008 愛知県名古屋市中区栄２丁目１１−１４",
        "place_id": "ChIJuR6ceix3A2ARgZG-fcljnBg",
        "lat": 35.165830899999996,
        "lng": 136.8999177
      },
      {
        "name": "FK白川公園パークマンション｜パークダイレクト",
        "address": "日本、〒460-0008 愛知県名古屋市中区栄２丁目１２−２８ 白川公園パークマンション １００８号 アークビル",
        "place_id": "ChIJ_1mFRwB3A2ARlyl0vYuZsDw",
        "lat": 35.1656453,
        "lng": 136.9002901
      },
      {
        "name": "三井のリパーク 栄第３７ 駐車場",
        "address": "日本、〒460-0008 愛知県名古屋市中区栄２丁目１０",
        "place_id": "ChIJ64uBy0l3A2ARybXYXuULHPo",
        "lat": 35.165973,
        "lng": 136.8988212
      },
      {
        "name": "NPC24H三蔵第2駐車場",
        "address": "日本、〒460-0008 愛知県名古屋市中区栄２丁目１１−５",
        "place_id": "ChIJ8fz3TJJ3A2ARs2ga_2hUUkA",
        "lat": 35.166136300000005,
        "lng": 136.89954749999998
      },
      {
        "name": "三蔵興産（株）",
        "address": "日本、〒460-0008 愛知県名古屋市中区栄２丁目１１−５ 三蔵第二駐車場",
        "place_id": "ChIJLys5dix3A2AR8XlTNPTDIJA",
        "lat": 35.166136300000005,
        "lng": 136.89954749999998
      },
      {
        "name": "蒼園パーキング",
        "address": "日本、〒460-0008 愛知県名古屋市中区栄２丁目１１−３",
        "place_id": "ChIJy7InZ8Z3A2ARo9qFI3FVzdY",
        "lat": 35.1662051,
        "lng": 136.8992725
      },
      {
        "name": "NPC24H三蔵パーキング",
        "address": "日本、〒460-0008 愛知県名古屋市中区栄２丁目１０−５",
        "place_id": "ChIJ0fpT9yt3A2ARHr3cAhxtcec",
        "lat": 35.1661468,
        "lng": 136.89866780000003
      },
      {
        "name": "FKウィン・コート白川駐車場｜パークダイレクト",
        "address": "日本、〒460-0008 愛知県名古屋市中区栄２丁目１２−２２ ウィン・コート白川",
        "place_id": "ChIJBUBUawB3A2ARBEUHTP4oAAs",
        "lat": 35.1656233,
        "lng": 136.9010587
      },
      {
        "name": "NPC24H三蔵通パーキング",
        "address": "日本、〒460-0008 愛知県名古屋市中区栄２丁目１２−３３",
        "place_id": "ChIJuX88hix3A2ARORRC_iyreuU",
        "lat": 35.1662718,
        "lng": 136.9006059
      },
      {
        "name": "NPC24H白川公園第3パーキング",
        "address": "日本、〒460-0008 愛知県名古屋市中区栄２丁目１２−1215番",
        "place_id": "ChIJdYTZ7ot3A2ARbsnEmA3eOho",
        "lat": 35.165807699999995,
        "lng": 136.9011898
      },
      {
        "name": "三井のリパーク 栄第２８ 駐車場",
        "address": "日本、〒460-0008 愛知県名古屋市中区栄１丁目２３−７",
        "place_id": "ChIJ0elQsS53A2ARIPJxjX3-lwQ",
        "lat": 35.1649259,
        "lng": 136.8971019
      },
      {
        "name": "パークゼウス栄2丁目",
        "address": "日本、〒460-0008 愛知県名古屋市中区栄２丁目１３−１３",
        "place_id": "ChIJQTkzEQB3A2AR7tdolB0HEFI",
        "lat": 35.1657261,
        "lng": 136.90136529999998
      },
      {
        "name": "サンケリーパーク 栄２丁目",
        "address": "日本、〒460-0008 愛知県名古屋市中区栄２丁目７−３０",
        "place_id": "ChIJt71PEgR3A2ARcvDoQ8GJx-I",
        "lat": 35.166760599999996,
        "lng": 136.9001774
      }
    ]
  },
  "35.16_136.97": {
    "cached_at": "2026-04-16",
    "parkings": [
      {
        "name": "プラスパークス名古屋東山通第3",
        "address": "日本、〒464-0807 愛知県名古屋市千種区東山通２丁目２−２",
        "place_id": "ChIJNwWIbAB7A2AR1KL017HZGVs",
        "lat": 35.1629708,
        "lng": 136.9665363
      },
      {
        "name": "akippa | 愛知県名古屋市千種区橋本町3-39駐車場",
        "address": "日本、〒464-0035 愛知県名古屋市千種区橋本町３丁目３９",
        "place_id": "ChIJ8VUFAAB7A2ARhAMPc29IRRY",
        "lat": 35.1633561,
        "lng": 136.9664735
      },
      {
        "name": "パーキング",
        "address": "日本、〒464-0035 愛知県名古屋市千種区橋本町３丁目３５ ビューティーサロンひろ子",
        "place_id": "ChIJib47-LF7A2ARcqCn9rHds18",
        "lat": 35.1635835,
        "lng": 136.9657289
      },
      {
        "name": "パークイン 東山通り",
        "address": "日本、〒464-0807 愛知県名古屋市千種区東山通２丁目５",
        "place_id": "ChIJA5jOWT97A2ARCRcQEvKFe-k",
        "lat": 35.162887399999995,
        "lng": 136.9668596
      },
      {
        "name": "三井のリパーク 橋本町３丁目 駐車場",
        "address": "日本、〒464-0035 愛知県名古屋市千種区橋本町３丁目２８",
        "place_id": "ChIJS1H68dV7A2ARTIFLFhi0zYA",
        "lat": 35.163686,
        "lng": 136.9658432
      },
      {
        "name": "名鉄協商パーキング 橋本町３丁目",
        "address": "日本、〒464-0035 愛知県名古屋市千種区橋本町３丁目42−１",
        "place_id": "ChIJe1Z63mV7A2ARCjMC3vWYueQ",
        "lat": 35.1630803,
        "lng": 136.96698279999998
      },
      {
        "name": "朝岡駐車場",
        "address": "日本、〒464-0811 愛知県名古屋市千種区朝岡町１丁目３１",
        "place_id": "ChIJf-rvOAB7A2ARkEc3KAPp_8M",
        "lat": 35.1621034,
        "lng": 136.9654024
      },
      {
        "name": "鈴木不動産コインパーク 本山",
        "address": "日本、〒464-0811 愛知県名古屋市千種区朝岡町１丁目５",
        "place_id": "ChIJMVfPNWN7A2AR6b0VTTL2na8",
        "lat": 35.1630424,
        "lng": 136.9647478
      },
      {
        "name": "鈴木不動産コインパーキング 本山第２",
        "address": "日本、〒464-0811 愛知県名古屋市千種区朝岡町１丁目１６",
        "place_id": "ChIJX8ZLXXt7A2ARrzoGrYxuRDE",
        "lat": 35.162936099999996,
        "lng": 136.9647081
      },
      {
        "name": "朝岡町２丁目(加藤咲子)P｜パークダイレクト",
        "address": "日本、〒464-0811 愛知県名古屋市千種区朝岡町２丁目１７",
        "place_id": "ChIJUS9QTgB7A2ARWxPljsw8GJg",
        "lat": 35.161846100000005,
        "lng": 136.9663529
      },
      {
        "name": "アイペック名古屋東山通第１",
        "address": "日本、〒464-0807 愛知県名古屋市千種区東山通２丁目９",
        "place_id": "ChIJF3Ev0fF7A2ARHWG_n2_HsZ4",
        "lat": 35.162716599999996,
        "lng": 136.9673645
      },
      {
        "name": "アイペック名古屋東山通第２",
        "address": "日本、〒464-0807 愛知県名古屋市千種区東山通２丁目１０",
        "place_id": "ChIJ925RY8x7A2AR05kLkJampTc",
        "lat": 35.1626778,
        "lng": 136.96757119999998
      },
      {
        "name": "朝岡第２駐車場",
        "address": "日本、〒464-0811 愛知県名古屋市千種区朝岡町１丁目４１",
        "place_id": "ChIJaUHOcgB7A2ARkH5OzUp1jHw",
        "lat": 35.161963,
        "lng": 136.964802
      },
      {
        "name": "三井のリパーク 名古屋本山第２ 駐車場",
        "address": "日本、〒464-0035 愛知県名古屋市千種区橋本町１丁目６５",
        "place_id": "ChIJnUHWDwpwA2ARm0Pg9r61fy0",
        "lat": 35.164221999999995,
        "lng": 136.9652655
      },
      {
        "name": "三井のリパーク 橋本町１丁目第２ 駐車場",
        "address": "日本、〒464-0035 愛知県名古屋市千種区橋本町１丁目６１",
        "place_id": "ChIJHeFF2AhxA2ARKEWARUVcDfM",
        "lat": 35.16444430000001,
        "lng": 136.9659265
      },
      {
        "name": "タウンライフ朝丘駐車場｜パークダイレクト",
        "address": "日本、〒464-0811 愛知県名古屋市千種区朝岡町３丁目３",
        "place_id": "ChIJTZxobAB7A2ARM6P0d_9ox_4",
        "lat": 35.161985099999995,
        "lng": 136.9674401
      },
      {
        "name": "タイムズのB ヴィラタチバナ駐車場",
        "address": "日本、〒464-0035 愛知県名古屋市千種区橋本町２丁目９ ヴィラタチバナ",
        "place_id": "ChIJacptySlxA2ARFuqbnGDyndk",
        "lat": 35.16448870000001,
        "lng": 136.9661601
      },
      {
        "name": "Ｄパーキング本山駅前第１",
        "address": "日本、〒464-0035 愛知県名古屋市千種区橋本町１丁目２０",
        "place_id": "ChIJM8PO0plxA2AREidGqSZoGnE",
        "lat": 35.1640766,
        "lng": 136.9644998
      },
      {
        "name": "橋本町駐車場｜パークダイレクト",
        "address": "日本、〒464-0035 愛知県名古屋市千種区橋本町１丁目１５",
        "place_id": "ChIJAZVGXgBxA2ARCKJ37vEct94",
        "lat": 35.164322,
        "lng": 136.96478299999998
      },
      {
        "name": "三井のリパーク 名古屋本山第７ 駐車場",
        "address": "日本、〒464-0035 愛知県名古屋市千種区橋本町１丁目12ｰ4",
        "place_id": "ChIJ-YcuDfFxA2ARLjhygVMaffk",
        "lat": 35.164524799999995,
        "lng": 136.96513489999998
      }
    ]
  }
}